loopIteration, time (us), axisP[0], axisP[1], axisP[2], axisI[0], axisI[1], axisI[2], axisD[0], axisD[1], rcCommand[0], rcCommand[1], rcCommand[2], rcCommand[3], vbatLatest (V), BaroAlt (cm), gyroADC[0], gyroADC[1], gyroADC[2], accSmooth[0], accSmooth[1], accSmooth[2], debug[0], debug[1], debug[2], debug[3], motor[0], motor[1], motor[2], motor[3], flightModeFlags (flags), stateFlags (flags), failsafePhase (flags), rxSignalReceived, rxFlightChannelsValid
65408, 92014536,   9,   0,   2,  -6,  22, -12,  19,   0,   2,   3,  -7, 1344, 15.193, 1477, -78,  60, -106, -1596, -2797, 6390, 1007,   7,   7,   0, 1334, 1310, 1398, 1334, 0, SMALL_ANGLE, IDLE, 1, 1
65412, 92018527,  16,   0,   4,  -6,  22, -12,  17,  -2,   2,   3,  -7, 1344, 15.193, 1477, -169,  71, -122, -1199, -2088, 6568, 999,  -1,   7,   0, 1329, 1305, 1399, 1343, 0, SMALL_ANGLE, IDLE, 1, 1
65416, 92022517,  13,  -8,   1,  -5,  22, -12,  -7, -22,   2,   3,  -7, 1344, 15.193, 1477, -135, 156, -100, -990, -1352, 6633, 999,  -1,   7,   0, 1324, 1362, 1348, 1342, 0, SMALL_ANGLE, IDLE, 1, 1
65420, 92026520,  25, -13,   4,  -5,  22, -12,  28, -13,   2,   3,  -7, 1344, 15.193, 1477, -280, 211, -117, -1132, -926, 7078, 997,  -3,   7,   0, 1284, 1308, 1396, 1388, 0, SMALL_ANGLE, IDLE, 1, 1
65424, 92030531,   3, -13,  -3,  -4,  22, -12, -55,  -1,   2,   3,  -7, 1343, 15.193, 1477,  -1, 213, -77, -1227, -940, 7007, 1003,   3,   7,   0, 1392, 1406, 1310, 1264, 0, SMALL_ANGLE, IDLE, 1, 1
65428, 92034570, -15,  -9, -12,  -4,  21, -12, -45,  11,   2,   3,  -7, 1343, 15.486, 1477, 228, 164, -30, -1413, -948, 6874, 1026,  26,   7,   0, 1406, 1408, 1326, 1232, 0, SMALL_ANGLE, IDLE, 1, 1
65432, 92038575, -20,  -1, -10,  -5,  21, -13, -13,  21,   2,   3,  -7, 1343, 15.486, 1482, 292,  78, -39, -1945, -75, 6902, 998,  -2,   7,   0, 1399, 1363, 1369, 1241, 0, SMALL_ANGLE, IDLE, 1, 1
65436, 92042571,  -5,   1,   1,  -5,  21, -13,  37,   6,   2,   3,  -7, 1343, 15.486, 1482,  99,  48, -101, -2361, 594, 6642, 995,  -5,   7,   0, 1332, 1300, 1410, 1330, 0, SMALL_ANGLE, IDLE, 1, 1
65440, 92046584,   0,   1,   6,  -5,  21, -13,  11,  -1,   2,   3,  -7, 1343, 15.486, 1482,  37,  53, -131, -2794, 947, 6245, 999,  -1,   7,   0, 1351, 1323, 1377, 1321, 0, SMALL_ANGLE, IDLE, 1, 1
65444, 92050588,   7,   1,   7,  -5,  21, -12,  17,  -1,   2,   3,  -7, 1343, 15.486, 1482, -56,  56, -139, -3091, 786, 5648, 995,  -5,   7,   0, 1340, 1308, 1388, 1336, 0, SMALL_ANGLE, IDLE, 1, 1
65448, 92054589,   3,   6,   4,  -5,  21, -12, -11,  15,   2,   3,  -7, 1343, 15.486, 1482,  -6,  -8, -119, -3099, 425, 5412, 999,  -1,   7,   0, 1390, 1322, 1380, 1280, 0, SMALL_ANGLE, IDLE, 1, 1
65452, 92058607, -13,   8,  -8,  -5,  22, -12, -40,   5,   2,   3,  -7, 1343, 15.486, 1482, 201, -33, -54, -2941,  27, 5464, 1001,   1,   7,   0, 1416, 1386, 1340, 1230, 0, SMALL_ANGLE, IDLE, 1, 1
65456, 92062617,   1,  13,  -1,  -5,  22, -12,  33,  13,   2,   3,  -7, 1343, 15.486, 1489,  29, -88, -89, -2310, -157, 5718, 1007,   7,   7,   0, 1349, 1279, 1433, 1311, 0, SMALL_ANGLE, IDLE, 1, 1
65460, 92066633,  -1,  10,  -1,  -5,  22, -12,  -5,  -9,   2,   3,  -7, 1343, 15.486, 1489,  53, -53, -90, -2236, 101, 5382, 1005,   5,   7,   0, 1364, 1344, 1368, 1296, 0, SMALL_ANGLE, IDLE, 1, 1
65464, 92070635,   6,  10,   1,  -5,  22, -12,  18,  -1,   2,   3,  -7, 1343, 15.486, 1489, -44, -48, -103, -2214, 230, 5094, 996,  -4,   7,   0, 1344, 1304, 1404, 1320, 0, SMALL_ANGLE, IDLE, 1, 1
65468, 92074634,  14,   8,   7,  -5,  23, -12,  17,  -6,   2,   3,  -7, 1343, 14.245, 1489, -138, -27, -132, -2301, -197, 5083, 1000,   0,   7,   0, 1337, 1297, 1399, 1339, 0, SMALL_ANGLE, IDLE, 1, 1
65472, 92078652,   5,   4,   3,  -5,  23, -12, -22,  -9,   2,   3,  -7, 1343, 14.245, 1489, -25,  14, -115, -2274, -938, 4946, 1004,   4,   7,   0, 1374, 1356, 1348, 1294, 0, SMALL_ANGLE, IDLE, 1, 1
65476, 92082661,  -5,  -1,  -2,  -5,  23, -12, -26, -16,   2,   3,  -7, 1343, 14.245, 1489, 110,  77, -86, -2105, -1737, 4890, 1000,   0,   7,   0, 1371, 1387, 1327, 1287, 0, SMALL_ANGLE, IDLE, 1, 1
65480, 92086671,  -1,  -3,  -1,  -5,  23, -12,   9,  -4,   2,   3,  -7, 1343, 14.245, 1489,  59,  93, -89, -1905, -2007, 5295, 1006,   6,   8,   0, 1343, 1337, 1375, 1317, 0, SMALL_ANGLE, IDLE, 1, 1
65484, 92090685,  10,   1,   6,  -5,  23, -12,  27,  10,   2,   3,  -7, 1343, 14.245, 1493, -90,  49, -131, -2001, -1259, 5146, 1002,   2,   8,   0, 1339, 1283, 1415, 1335, 0, SMALL_ANGLE, IDLE, 1, 1
65488, 92094700,  19,  -5,   8,  -4,  23, -12,  22, -18,   2,   3,  -7, 1343, 14.245, 1493, -207, 120, -141, -2226, -553, 4887, 1004,   4,   8,   0, 1302, 1310, 1384, 1376, 0, SMALL_ANGLE, IDLE, 1, 1
65492, 92098704,  10,  -9,  -2,  -4,  23, -12, -24, -12,   2,   3,  -7, 1343, 14.245, 1493, -84, 170, -87, -3211, -395, 4647, 999,  -1,   8,   0, 1349, 1373, 1341, 1309, 0, SMALL_ANGLE, IDLE, 1, 1
65496, 92102709,  -5, -10, -12,  -4,  22, -12, -36,  -3,   2,   3,  -7, 1343, 14.245, 1493, 103, 183, -31, -3512, -523, 4383, 1001,   1,   8,   0, 1373, 1403, 1331, 1265, 0, SMALL_ANGLE, IDLE, 1, 1
65500, 92106704, -10,  -4, -10,  -4,  22, -12, -12,  16,   2,   3,  -7, 1343, 14.245, 1493, 163, 115, -42, -3612, -562, 4140, 998,  -2,   8,   0, 1381, 1357, 1373, 1261, 0, SMALL_ANGLE, IDLE, 1, 1
65504, 92110710,  -8,  -7,  -6,  -4,  22, -13,   3,  -8,   2,   3,  -7, 1343, 14.245, 1493, 140, 145, -63, -3862, -36, 4101, 1008,   8,   8,   0, 1340, 1364, 1360, 1308, 0, SMALL_ANGLE, IDLE, 1, 1
65508, 92114736, -10, -10,  -7,  -5,  22, -13,  -5,  -9,   2,   3,  -7, 1343, 14.404, 1499, 164, 181, -56, -3906, 349, 4165, 1001,   1,   8,   0, 1346, 1380, 1346, 1300, 0, SMALL_ANGLE, IDLE, 1, 1
65512, 92118746,  -7,  -6,  -3,  -5,  21, -13,   6,  12,   2,   3,  -7, 1343, 14.404, 1499, 132, 129, -78, -3927, 367, 4212, 1001,   1,   8,   0, 1360, 1338, 1380, 1294, 0, SMALL_ANGLE, IDLE, 1, 1
65516, 92122754,  -4,  -3,   2,  -5,  21, -13,   9,   6,   2,   3,  -7, 1343, 14.404, 1499,  85, 100, -105, -3789,  -7, 4128, 994,  -6,   8,   0, 1356, 1330, 1378, 1308, 0, SMALL_ANGLE, IDLE, 1, 1
65520, 92126773,   6,   1,   7,  -5,  21, -13,  24,  10,   2,   3,  -7, 1343, 14.404, 1499, -45,  57, -136, -3539,  62, 4090, 1000,   0,   8,   0, 1344, 1292, 1406, 1330, 0, SMALL_ANGLE, IDLE, 1, 1
65524, 92130825,   9,  -3,   7,  -5,  21, -13,   6,  -9,   2,   3,  -7, 1343, 14.404, 1499, -81,  92, -134, -3310, 207, 3964, 999,  -1,   8,   0, 1336, 1330, 1368, 1338, 0, SMALL_ANGLE, IDLE, 1, 1
65528, 92134834,  11,  -4,   6,  -4,  21, -13,   3,  -4,   2,   3,  -7, 1343, 14.404, 1499, -100, 106, -129, -3026,  85, 3859, 998,  -2,   8,   0, 1339, 1327, 1373, 1333, 0, SMALL_ANGLE, IDLE, 1, 1
65532, 92138843,  10,  -7,   4,  -4,  21, -12,  -4, -10,   2,   3,  -7, 1343, 14.404, 1505, -85, 144, -122, -2954, 190, 3896, 1000,   0,   8,   0, 1337, 1345, 1357, 1333, 0, SMALL_ANGLE, IDLE, 1, 1
65536, 92142855,   6,  -8,   2,  -4,  21, -12,  -9,  -2,   2,   3,  -7, 1343, 14.404, 1505, -40, 153, -108, -2859, 518, 3882, 994,  -6,   8,   0, 1351, 1349, 1357, 1315, 0, SMALL_ANGLE, IDLE, 1, 1
65540, 92146866,  13,  -2,   4,  -3,  21, -12,  17,  17,   2,   3,  -7, 1343, 14.404, 1505, -134,  83, -118, -2377, 1483, 3785, 1008,   8,   8,   0, 1344, 1288, 1414, 1326, 0, SMALL_ANGLE, IDLE, 1, 1
65544, 92150866,   9,  -1,   1,  -3,  21, -12, -11,   0,   2,   3,  -7, 1343, 14.404, 1505, -83,  77, -103, -2186, 1759, 3716, 998,  -2,   8,   0, 1357, 1339, 1369, 1307, 0, SMALL_ANGLE, IDLE, 1, 1
65548, 92154910,   4,  -2,  -2,  -3,  21, -12, -13,  -1,   2,   3,  -7, 1343, 16.239, 1505, -18,  83, -86, -1983, 1560, 3575, 996,  -4,   8,   0, 1359, 1351, 1363, 1299, 0, SMALL_ANGLE, IDLE, 1, 1
65552, 92158906,  -1,  -2,  -2,  -3,  21, -12, -15,  -2,   2,   3,  -7, 1343, 16.239, 1505,  58,  90, -86, -1464, 555, 3477, 995,  -5,   8,   0, 1365, 1359, 1355, 1293, 0, SMALL_ANGLE, IDLE, 1, 1
65556, 92162916,  -8,  -4,  -5,  -3,  21, -12, -16,  -4,   2,   3,  -7, 1343, 16.239, 1509, 137, 105, -69, -1117, 567, 3414, 1006,   6,   8,   0, 1366, 1374, 1346, 1286, 0, SMALL_ANGLE, IDLE, 1, 1
65560, 92166914,  -7,  -3,  -5,  -3,  21, -13,   1,   2,   2,   3,  -7, 1343, 16.239, 1509, 128,  95, -68, -716, 924, 3322, 1002,   2,   8,   0, 1354, 1350, 1372, 1296, 0, SMALL_ANGLE, IDLE, 1, 1
65564, 92170938,  -7,  -5,  -3,  -3,  20, -13,   0,  -6,   2,   3,  -7, 1343, 16.239, 1509, 129, 118, -79, -156, 1009, 3104, 1007,   7,   8,   0, 1346, 1360, 1358, 1308, 0, SMALL_ANGLE, IDLE, 1, 1
65568, 92174956, -13,  -8,  -3,  -4,  20, -13, -15,  -9,   2,   3,  -7, 1343, 16.239, 1509, 206, 152, -78,  64, 513, 2895, 1000,   0,   8,   0, 1362, 1388, 1330, 1292, 0, SMALL_ANGLE, IDLE, 1, 1
65572, 92178969,  -9,  -2,   0,  -4,  20, -13,   9,  15,   2,   3,  -7, 1343, 16.239, 1509, 155,  88, -93, 246, -67, 2776, 1002,   2,   8,   0, 1367, 1327, 1385, 1293, 0, SMALL_ANGLE, IDLE, 1, 1
65576, 92182988,  -3,  -1,   1,  -4,  20, -13,  14,   2,   2,   3,  -7, 1343, 16.239, 1509,  76,  79, -101, -10, -887, 2882, 1008,   8,   8,   0, 1345, 1327, 1383, 1317, 0, SMALL_ANGLE, IDLE, 1, 1
65580, 92186996,   0,   0,  -1,  -4,  20, -13,   6,   2,   2,   3,  -7, 1343, 16.239, 1509,  41,  67, -91, -437, -1227, 2994, 997,  -3,   8,   0, 1349, 1333, 1381, 1309, 0, SMALL_ANGLE, IDLE, 1, 1
65584, 92191011,   8,   1,   0,  -4,  20, -13,  20,   3,   2,   3,  -7, 1343, 16.239, 1515, -71,  50, -92, -750, -1489, 3147, 1001,   1,   8,   0, 1330, 1308, 1404, 1330, 0, SMALL_ANGLE, IDLE, 1, 1
65588, 92195013,   9,   0,  -1,  -4,  20, -13,   2,  -4,   2,   3,  -7, 1343, 15.184, 1515, -81,  61, -91, -1429, -1489, 3362, 1008,   8,   8,   0, 1338, 1334, 1380, 1320, 0, SMALL_ANGLE, IDLE, 1, 1
65592, 92199055,   3,  -2,  -2,  -4,  20, -13, -16,  -6,   2,   3,  -7, 1343, 15.184, 1515,   1,  84, -85, -1770, -1630, 3459, 1036,  36,   8,   0, 1357, 1363, 1353, 1299, 0, SMALL_ANGLE, IDLE, 1, 1
65596, 92203072,   6,  -3,   2,  -4,  20, -13,   6,  -3,   2,   3,  -7, 1343, 15.184, 1515, -36,  98, -105, -2102, -1877, 3593, 998,  -2,   8,   0, 1338, 1332, 1376, 1326, 0, SMALL_ANGLE, IDLE, 1, 1
65600, 92207087,   5,  -5,   2,  -3,  20, -13,  -3,  -6,   2,   3,  -7, 1343, 15.184, 1515, -24, 121, -104, -2071, -1667, 3605, 1008,   8,   8,   0, 1342, 1346, 1362, 1322, 0, SMALL_ANGLE, IDLE, 1, 1
65604, 92211102,   3,  -5,   0,  -3,  20, -13,  -5,   0,   2,   3,  -7, 1343, 15.184, 1515,   2, 119, -99, -1812, -1132, 3429, 1007,   7,   8,   0, 1350, 1346, 1366, 1310, 0, SMALL_ANGLE, IDLE, 1, 1
65608, 92215128,   5,  -6,   2,  -3,  20, -13,   4,  -4,   2,   3,  -7, 1343, 15.184, 1522, -24, 135, -104, -1639, -722, 3238, 1004,   4,   8,   0, 1336, 1338, 1370, 1328, 0, SMALL_ANGLE, IDLE, 1, 1
65612, 92219135,  -3,  -9,  -2,  -3,  19, -13, -20,  -7,   2,   3,  -7, 1343, 15.184, 1522,  78, 162, -84, -1391, -1001, 2967, 1006,   6,   8,   0, 1357, 1381, 1335, 1299, 0, SMALL_ANGLE, IDLE, 1, 1
65616, 92223141,  -3,  -9,  -4,  -3,  19, -13,   0,   0,   2,   3,  -7, 1343, 15.184, 1522,  77, 160, -73, -1156, -1494, 2963, 999,  -1,   8,   0, 1342, 1356, 1364, 1310, 0, SMALL_ANGLE, IDLE, 1, 1
65620, 92227141,   1,  -6,  -3,  -3,  19, -13,   9,   5,   2,   3,  -7, 1343, 15.184, 1522,  24, 138, -77, -1056, -1957, 3141, 997,  -3,   8,   0, 1338, 1334, 1384, 1316, 0, SMALL_ANGLE, IDLE, 1, 1
65624, 92231157,  -9,  -6,  -5,  -3,  19, -13, -25,   0,   2,   3,  -7, 1343, 15.184, 1522, 155, 132, -64, -1142, -1621, 3621, 1016,  16,   8,   0, 1375, 1385, 1337, 1275, 0, SMALL_ANGLE, IDLE, 1, 1
65628, 92235167, -17,  -2,  -5,  -4,  19, -13, -21,  11,   2,   3,  -7, 1343, 15.087, 1522, 262,  87, -64, -1209, -1135, 3685, 996,  -4,   8,   0, 1395, 1375, 1347, 1255, 0, SMALL_ANGLE, IDLE, 1, 1
65632, 92239176, -12,   0,   0,  -4,  19, -13,  12,   4,   2,   3,  -7, 1343, 15.087, 1526, 196,  65, -93, -1342, -913, 3688, 1006,   6,   8,   0, 1357, 1337, 1375, 1303, 0, SMALL_ANGLE, IDLE, 1, 1
65636, 92243178,   4,   4,   5,  -4,  19, -13,  40,  11,   2,   3,  -7, 1343, 15.087, 1526, -12,  17, -125, -1453, -701, 3869, 1001,   1,   8,   0, 1329, 1277, 1425, 1341, 0, SMALL_ANGLE, IDLE, 1, 1
65640, 92247270,   5,   5,   2,  -4,  19, -13,   3,   2,   2,   3,  -7, 1343, 15.087, 1526, -32,   6, -110, -1458, -352, 3839, 1007,   7,   8,   0, 1354, 1324, 1384, 1310, 0, SMALL_ANGLE, IDLE, 1, 1
65644, 92251283,   3,   0,   0,  -4,  19, -13,  -6, -14,   2,   3,  -6, 1343, 15.087, 1526,  -5,  61, -87, -1432, -96, 3723, 998,  -2,   8,   0, 1342, 1358, 1354, 1318, 0, SMALL_ANGLE, IDLE, 1, 1
65648, 92255278, -18,  -3,  -8,  -4,  19, -13, -53,  -9,   2,   3,  -6, 1343, 15.087, 1526, 269,  99, -40, -1857, -22, 3691, 1004,   4,   8,   0, 1404, 1432, 1296, 1240, 0, SMALL_ANGLE, IDLE, 1, 1
65652, 92259286, -15,   4,  -5,  -5,  19, -13,   7,  20,   2,   3,  -6, 1343, 15.087, 1526, 228,  15, -56, -2000, 278, 3758, 1008,   8,   8,   0, 1381, 1331, 1391, 1269, 0, SMALL_ANGLE, IDLE, 1, 1
65656, 92263285,  -1,   8,   0,  -5,  19, -13,  33,  10,   2,   3,  -6, 1343, 15.087, 1532,  57, -34, -84, -1982, 738, 3819, 998,  -2,   8,   0, 1340, 1292, 1420, 1320, 0, SMALL_ANGLE, IDLE, 1, 1
65660, 92267294,  10,   8,   7,  -5,  19, -13,  28,  -1,   2,   3,  -6, 1343, 15.087, 1532, -94, -28, -126, -2081, 1346, 3896, 1005,   5,   8,   0, 1330, 1290, 1408, 1344, 0, SMALL_ANGLE, IDLE, 1, 1
65664, 92271345,  14,  10,  10,  -4,  20, -13,   8,   5,   2,   3,  -6, 1343, 15.087, 1532, -136, -54, -143, -2254, 1163, 3943, 997,  -3,   8,   0, 1357, 1293, 1399, 1323, 0, SMALL_ANGLE, IDLE, 1, 1
65668, 92275349,  15,  12,   9,  -4,  20, -13,   3,   5,   2,   3,  -6, 1343, 15.229, 1532, -156, -77, -135, -2389, 715, 3822, 1001,   1,   8,   0, 1362, 1296, 1398, 1316, 0, SMALL_ANGLE, IDLE, 1, 1
65672, 92279352,  14,  13,   7,  -3,  20, -13,  -3,   1,   2,   3,  -6, 1343, 15.229, 1532, -144, -86, -121, -2155, -131, 3824, 1001,   1,   8,   0, 1363, 1307, 1391, 1311, 0, SMALL_ANGLE, IDLE, 1, 1
65676, 92283359,   3,   5,   0,  -3,  21, -13, -28, -21,   2,   3,  -6, 1343, 15.229, 1532,  -1,   0, -82, -2049, -27, 4208, 1000,   0,   8,   0, 1363, 1379, 1333, 1297, 0, SMALL_ANGLE, IDLE, 1, 1
65680, 92287353,   0,   0,  -5,  -3,  21, -13,  -9, -17,   2,   3,  -6, 1343, 15.229, 1532,  44,  70, -52, -2070, 257, 4496, 998,  -2,   8,   0, 1341, 1369, 1353, 1309, 0, SMALL_ANGLE, IDLE, 1, 1
65684, 92291439,   0,   4,  -6,  -3,  21, -13,   1,  11,   2,   3,  -6, 1343, 15.229, 1539,  36,  23, -48, -2109, 459, 4461, 1001,   1,   8,   0, 1362, 1328, 1396, 1286, 0, SMALL_ANGLE, IDLE, 1, 1
65688, 92295448,   2,   4,  -3,  -3,  21, -13,   3,   0,   2,   3,  -6, 1343, 15.229, 1539,  16,  19, -70, -2139, 268, 4393, 1002,   2,   8,   0, 1350, 1332, 1386, 1304, 0, SMALL_ANGLE, IDLE, 1, 1
65692, 92299455,  -7,   0,  -3,  -3,  21, -13, -22, -12,   2,   3,  -6, 1343, 15.229, 1539, 130,  64, -65, -2107,  27, 4339, 1000,   0,   8,   0, 1368, 1382, 1336, 1286, 0, SMALL_ANGLE, IDLE, 1, 1
65696, 92303459, -13,  -4,  -5,  -4,  21, -13, -15, -11,   2,   3,  -6, 1343, 15.229, 1539, 202, 110, -53, -1623, -425, 4402, 996,  -4,   8,   0, 1363, 1387, 1335, 1287, 0, SMALL_ANGLE, IDLE, 1, 1
65700, 92307467,  -8,  -5,  -2,  -4,  21, -13,  12,  -4,   2,   3,  -6, 1343, 15.229, 1539, 137, 127, -73, -1398, -667, 4470, 998,  -2,   8,   0, 1340, 1346, 1370, 1316, 0, SMALL_ANGLE, IDLE, 1, 1
65704, 92311480,  -1,  -9,   1,  -4,  20, -13,  16, -11,   2,   3,  -7, 1343, 15.229, 1539,  54, 169, -102, -1269, -917, 4509, 1001,   1,   8,   0, 1320, 1344, 1366, 1342, 0, SMALL_ANGLE, IDLE, 1, 1
65708, 92315496,   5, -17,   3,  -4,  20, -13,  16, -21,   2,   3,  -7, 1343, 15.158, 1546, -35, 252, -115, -558, -1001, 4589, 1013,  13,   8,   0, 1298, 1354, 1352, 1368, 0, SMALL_ANGLE, IDLE, 1, 1
65712, 92319507,  13, -12,   4,  -4,  20, -13,  17,  12,   2,   3,  -7, 1343, 15.158, 1546, -125, 201, -123, -314, -825, 4684, 1002,   2,   8,   0, 1328, 1306, 1398, 1340, 0, SMALL_ANGLE, IDLE, 1, 1
65716, 92323514,  11, -11,   2,  -3,  19, -13,  -5,   2,   2,   3,  -7, 1343, 15.158, 1546, -101, 189, -110, -414, -902, 4823, 998,  -2,   8,   0, 1339, 1341, 1367, 1325, 0, SMALL_ANGLE, IDLE, 1, 1
65720, 92327534,   6, -13,  -3,  -3,  19, -13, -13,  -5,   2,   3,  -7, 1343, 15.158, 1546, -36, 211, -80, -900, -1796, 4873, 1007,   7,   8,   0, 1338, 1368, 1350, 1316, 0, SMALL_ANGLE, IDLE, 1, 1
65724, 92331552,   2, -10,  -5,  -3,  19, -13, -10,   6,   2,   3,  -7, 1343, 15.158, 1546,  13, 183, -69, -1136, -2214, 4846, 1008,   8,   8,   0, 1351, 1357, 1365, 1299, 0, SMALL_ANGLE, IDLE, 1, 1
65728, 92335570,   0,  -7,  -5,  -3,  19, -13,  -7,   8,   2,   3,  -7, 1343, 15.158, 1546,  47, 145, -65, -1305, -2458, 4994, 1005,   5,   8,   0, 1355, 1351, 1371, 1295, 0, SMALL_ANGLE, IDLE, 1, 1
65732, 92339733,  -4,  -5,  -5,  -3,  18, -13,  -9,   6,   2,   3,  -7, 1343, 15.158, 1554,  89, 119, -66, -1648, -2227, 5331, 1156, 156,   8,   0, 1360, 1358, 1364, 1290, 0, SMALL_ANGLE, IDLE, 1, 1
65736, 92343746,  -1,  -2,  -3,  -3,  18, -13,   6,   8,   2,   3,  -7, 1343, 15.158, 1554,  56,  80, -76, -1894, -2098, 5166, 1009,   9,   8,   0, 1349, 1333, 1385, 1305, 0, SMALL_ANGLE, IDLE, 1, 1
65740, 92347742,   0,   4,   2,  -3,  18, -13,   4,  16,   2,   3,  -7, 1343, 15.158, 1554,  34,  13, -110, -2077, -1947, 4864, 1000,   0,   8,   0, 1369, 1315, 1393, 1295, 0, SMALL_ANGLE, IDLE, 1, 1
65744, 92351753,   3,   8,   8,  -3,  19, -13,   6,   9,   2,   3,  -7, 1343, 15.158, 1554,   1, -30, -142, -2154, -1887, 4712, 999,  -1,   8,   0, 1368, 1306, 1390, 1308, 0, SMALL_ANGLE, IDLE, 1, 1
65748, 92355782,  -2,   9,   7,  -3,  19, -13, -12,   1,   2,   3,  -7, 1343, 14.945, 1554,  62, -39, -137, -2253, -1869, 4814, 1008,   8,   8,   0, 1383, 1337, 1361, 1291, 0, SMALL_ANGLE, IDLE, 1, 1
65752, 92359789,  -6,   8,   4,  -3,  19, -13, -11,  -2,   2,   3,  -7, 1343, 14.945, 1554, 112, -31, -116, -2322, -1704, 4899, 1001,   1,   8,   0, 1379, 1347, 1357, 1289, 0, SMALL_ANGLE, IDLE, 1, 1
65756, 92363836,  -1,   6,   1,  -3,  19, -13,  12,  -6,   2,   3,  -7, 1343, 14.945, 1562,  51,  -7, -103, -2373, -908, 4723, 1016,  16,   8,   0, 1342, 1328, 1382, 1320, 0, SMALL_ANGLE, IDLE, 1, 1
65760, 92367839,  -1,   3,  -1,  -3,  19, -13,  -2,  -7,   2,   3,  -7, 1343, 14.945, 1562,  57,  24, -90, -2254, -487, 4693, 1001,   1,   8,   0, 1350, 1348, 1366, 1308, 0, SMALL_ANGLE, IDLE, 1, 1
65764, 92371848,  -2,   2,   0,  -3,  19, -13,  -3,  -4,   2,   3,  -7, 1343, 14.945, 1562,  68,  41, -92, -2076, -103, 4757, 996,  -4,   8,   0, 1355, 1347, 1365, 1305, 0, SMALL_ANGLE, IDLE, 1, 1
65768, 92375865,  -3,   1,   0,  -3,  19, -13,  -3,  -4,   2,   3,  -7, 1343, 14.945, 1562,  80,  57, -97, -1898, 356, 4562, 995,  -5,   8,   0, 1355, 1349, 1363, 1305, 0, SMALL_ANGLE, IDLE, 1, 1
65772, 92379887,  -5,  -4,   0,  -3,  19, -13,  -6, -14,   2,   3,  -7, 1343, 14.945, 1562, 110, 115, -98, -1836, 331, 4328, 1001,   1,   8,   0, 1345, 1369, 1343, 1315, 0, SMALL_ANGLE, IDLE, 1, 1
65776, 92383873,  -6,  -9,   1,  -4,  19, -13,  -1, -13,   2,   3,  -7, 1343, 14.945, 1562, 113, 166, -101, -1829, 123, 4103, 995,  -5,   8,   0, 1339, 1369, 1341, 1323, 0, SMALL_ANGLE, IDLE, 1, 1
65780, 92387904,   0,  -9,   0,  -4,  19, -13,  14,   0,   2,   3,  -7, 1343, 14.945, 1562,  37, 160, -97, -1711, -13, 3792, 1000,   0,   7,   0, 1330, 1336, 1376, 1330, 0, SMALL_ANGLE, IDLE, 1, 1
65784, 92391921,   3,  -5,   0,  -4,  19, -13,   6,   9,   2,   3,  -7, 1343, 14.945, 1570,   5, 121, -93, -1465, 365, 3823, 999,  -1,   7,   0, 1348, 1328, 1384, 1312, 0, SMALL_ANGLE, IDLE, 1, 1
65788, 92395935,  -3,  -5,  -3,  -4,  19, -13, -15,   0,   2,   3,  -7, 1343, 14.927, 1570,  81, 118, -83, -1290, 745, 3792, 1008,   8,   7,   0, 1363, 1367, 1351, 1291, 0, SMALL_ANGLE, IDLE, 1, 1
65792, 92399952,   0,  -6,  -1,  -4,  19, -13,   7,  -3,   2,   3,  -7, 1343, 14.927, 1570,  41, 129, -91, -1221, 1180, 3367, 1006,   6,   7,   0, 1336, 1344, 1370, 1322, 0, SMALL_ANGLE, IDLE, 1, 1
65796, 92403960,   6,  -5,   3,  -4,  18, -13,  16,   0,   2,   3,  -7, 1343, 14.927, 1570, -45, 125, -113, -1329, 1483, 3211, 1006,   6,   7,   0, 1328, 1322, 1384, 1338, 0, SMALL_ANGLE, IDLE, 1, 1
65800, 92407958,   1,  -8,   2,  -3,  18, -13, -14,  -7,   2,   3,  -7, 1343, 14.927, 1570,  26, 153, -111, -1443, 1940, 2988, 1008,   8,   7,   0, 1351, 1367, 1341, 1313, 0, SMALL_ANGLE, IDLE, 1, 1
65804, 92411978,   0,  -6,   2,  -3,  18, -13,  -4,   5,   2,   3,  -7, 1343, 14.927, 1570,  44, 131, -104, -1612, 2822, 2153, 1007,   7,   7,   0, 1356, 1344, 1364, 1308, 0, SMALL_ANGLE, IDLE, 1, 1
65808, 92415994,  -3,  -7,   2,  -3,  18, -13,  -6,  -3,   2,   3,  -7, 1343, 14.927, 1578,  75, 143, -105, -1747, 2865, 1895, 1007,   7,   7,   0, 1352, 1358, 1350, 1312, 0, SMALL_ANGLE, IDLE, 1, 1
65812, 92420008,  -2,  -4,   2,  -3,  18, -13,   1,   8,   2,   3,  -7, 1343, 14.927, 1578,  66, 106, -108, -1847, 2786, 1800, 995,  -5,   7,   0, 1358, 1336, 1372, 1306, 0, SMALL_ANGLE, IDLE, 1, 1
65816, 92424010,  -6,  -3,   3,  -4,  18, -13, -11,   1,   2,   3,  -7, 1343, 14.927, 1578, 117,  98, -112, -1999, 2060, 1680, 999,  -1,   7,   0, 1370, 1358, 1348, 1296, 0, SMALL_ANGLE, IDLE, 1, 1
65820, 92428024,  -5,  -8,   4,  -4,  17, -13,   2, -14,   2,   3,  -7, 1343, 14.927, 1578, 106, 154, -120, -2105, 1538, 1694, 1000,   0,   7,   0, 1336, 1364, 1340, 1332, 0, SMALL_ANGLE, IDLE, 1, 1
65824, 92432023,  -8, -12,   0,  -4,  17, -13,  -7, -12,   2,   3,  -7, 1343, 14.927, 1578, 143, 201, -94, -2177, 1161, 1803, 995,  -5,   7,   0, 1342, 1382, 1330, 1318, 0, SMALL_ANGLE, IDLE, 1, 1
65828, 92436197,  -2,  -6,  -3,  -4,  17, -13,  14,  16,   2,   3,  -7, 1343, 15.007, 1578,  65, 134, -79, -2089, 1187, 1909, 998,  -2,   7,   0, 1346, 1324, 1394, 1308, 0, SMALL_ANGLE, IDLE, 1, 1
65832, 92440195,  -8,  -5,  -7,  -4,  17, -13, -16,   3,   2,   3,  -7, 1343, 15.007, 1583, 144, 119, -59, -2194, 1065, 2037, 998,  -2,   7,   0, 1366, 1376, 1350, 1280, 0, SMALL_ANGLE, IDLE, 1, 1
65836, 92444199,   4,   0,  -3,  -4,  17, -13,  29,  11,   2,   3,  -7, 1343, 15.007, 1583,  -8,  68, -81, -2404, 641, 2175, 1004,   4,   7,   0, 1326, 1302, 1416, 1328, 0, SMALL_ANGLE, IDLE, 1, 1
65840, 92448212,  17,   5,   2,  -4,  17, -13,  32,  15,   2,   3,  -7, 1343, 15.007, 1583, -179,   5, -105, -2522, -478, 2436, 999,  -1,   7,   0, 1324, 1272, 1436, 1340, 0, SMALL_ANGLE, IDLE, 1, 1
65844, 92452212,  17,   9,   0,  -3,  17, -13,   0,  10,   2,   3,  -7, 1343, 15.007, 1583, -178, -40, -96, -2471, -852, 2763, 1001,   1,   7,   0, 1352, 1306, 1406, 1308, 0, SMALL_ANGLE, IDLE, 1, 1
65848, 92456273,   4,  10,  -4,  -3,  17, -13, -32,   2,   2,   3,  -7, 1343, 15.007, 1583, -13, -52, -75, -2399, -1037, 3319, 1066,  66,   7,   0, 1386, 1362, 1358, 1266, 0, SMALL_ANGLE, IDLE, 1, 1
65852, 92460276,   5,  13,   0,  -3,  18, -13,   3,   6,   2,   3,  -7, 1343, 15.007, 1583, -28, -82, -96, -2244, -1001, 3992, 995,  -5,   7,   0, 1362, 1314, 1398, 1298, 0, SMALL_ANGLE, IDLE, 1, 1
65856, 92464289,   9,  13,   2,  -3,  18, -13,   8,   1,   2,   3,  -7, 1343, 15.007, 1589, -72, -90, -110, -2014, -981, 4060, 1003,   3,   7,   0, 1350, 1308, 1400, 1314, 0, SMALL_ANGLE, IDLE, 1, 1
65860, 92468302,  11,  13,   2,  -3,  18, -13,   6,  -1,   2,   3,  -7, 1343, 15.007, 1589, -108, -85, -107, -1753, -973, 4167, 998,  -2,   7,   0, 1348, 1310, 1398, 1316, 0, SMALL_ANGLE, IDLE, 1, 1
65864, 92472310,  10,  10,   2,  -2,  19, -13,  -5,  -9,   2,   3,  -7, 1343, 15.007, 1589, -87, -50, -108, -1372, -1020, 4361, 1003,   3,   7,   0, 1349, 1331, 1377, 1315, 0, SMALL_ANGLE, IDLE, 1, 1
65868, 92476317,   4,   5,   2,  -2,  19, -13, -14, -14,   2,   3,  -7, 1343, 14.750, 1589, -14,   8, -109, -1278, -1081, 4333, 1002,   2,   7,   0, 1354, 1356, 1352, 1310, 0, SMALL_ANGLE, IDLE, 1, 1
65872, 92480309,   5,   2,   4,  -2,  19, -13,   3,  -9,   2,   3,  -7, 1343, 14.750, 1589, -32,  47, -118, -1243, -1033, 4291, 999,  -1,   7,   0, 1340, 1334, 1370, 1328, 0, SMALL_ANGLE, IDLE, 1, 1
65876, 92484327,  -2,   1,  -2,  -2,  19, -13, -20,  -1,   2,   3,  -7, 1343, 14.750, 1589,  71,  48, -87, -1032, -641, 4370, 994,  -6,   7,   0, 1371, 1363, 1353, 1285, 0, SMALL_ANGLE, IDLE, 1, 1
65880, 92488348, -10,   1,  -6,  -2,  19, -13, -19,   0,   2,   3,  -7, 1343, 14.750, 1589, 165,  50, -62, -1044, -359, 4431, 1005,   5,   8,   0, 1375, 1373, 1351, 1273, 0, SMALL_ANGLE, IDLE, 1, 1
65884, 92492362, -12,  -5,  -5,  -2,  19, -13,  -6, -11,   2,   2,  -7, 1343, 14.750, 1593, 193,  95, -67, -1178, -162, 4509, 1006,   6,   8,   0, 1348, 1378, 1344, 1302, 0, SMALL_ANGLE, IDLE, 1, 1
65888, 92496354, -24, -12, -10,  -3,  19, -13, -29, -21,   2,   2,  -7, 1343, 14.750, 1593, 343, 176, -39, -1586, -275, 4731, 998,  -2,   8,   0, 1362, 1436, 1296, 1278, 0, SMALL_ANGLE, IDLE, 1, 1
65892, 92500366, -15, -14,  -3,  -4,  18, -13,  21,  -6,   2,   2,  -7, 1343, 14.750, 1593, 231, 200, -76, -1853, -383, 4669, 1000,   0,   8,   0, 1323, 1359, 1359, 1331, 0, SMALL_ANGLE, IDLE, 1, 1
65896, 92504386, -10, -11,   3,  -4,  18, -13,  12,   7,   2,   2,  -7, 1343, 14.750, 1593, 163, 170, -114, -2144, -514, 4469, 998,  -2,   8,   0, 1349, 1341, 1365, 1317, 0, SMALL_ANGLE, IDLE, 1, 1
65900, 92508409,  -4, -10,   5,  -4,  18, -13,  14,   4,   2,   2,  -7, 1343, 14.750, 1593,  84, 148, -125, -2260, -304, 4558, 1008,   8,   8,   0, 1341, 1333, 1369, 1329, 0, SMALL_ANGLE, IDLE, 1, 1
65904, 92512436,   8,  -6,   9,  -4,  18, -13,  28,  10,   2,   2,  -7, 1343, 14.750, 1593, -66, 105, -148, -2178,  10, 4630, 1005,   5,   8,   0, 1329, 1293, 1401, 1349, 0, SMALL_ANGLE, IDLE, 1, 1
65908, 92516450,  13,  -7,  10,  -4,  17, -13,  11,  -4,   2,   2,  -7, 1343, 14.537, 1599, -127, 120, -153, -2173, 303, 4563, 1002,   2,   8,   0, 1326, 1320, 1372, 1354, 0, SMALL_ANGLE, IDLE, 1, 1
65912, 92520450,   3,  -3,   4,  -3,  17, -13, -25,  11,   2,   2,  -7, 1343, 14.537, 1599,   4,  72, -118, -2280, 630, 4130, 994,  -6,   8,   0, 1384, 1352, 1352, 1284, 0, SMALL_ANGLE, IDLE, 1, 1
65916, 92524473, -13,  -2,  -1,  -4,  17, -13, -39,   1,   2,   2,  -7, 1343, 14.537, 1599, 200,  65, -88, -2438, 455, 4010, 1003,   3,   8,   0, 1401, 1397, 1317, 1257, 0, SMALL_ANGLE, IDLE, 1, 1
65920, 92528472, -12,  -1,   0,  -4,  17, -13,   0,   2,   2,   2,  -7, 1343, 14.537, 1599, 199,  55, -92, -2602, 151, 4028, 1001,   1,   8,   0, 1364, 1354, 1358, 1296, 0, SMALL_ANGLE, IDLE, 1, 1
65924, 92532490,   0,   3,   5,  -4,  17, -13,  30,  11,   2,   2,  -7, 1343, 14.537, 1599,  40,   7, -126, -2970, 317, 3964, 1009,   9,   8,   0, 1340, 1294, 1408, 1330, 0, SMALL_ANGLE, IDLE, 1, 1
65928, 92536495,   3,   7,   5,  -4,  17, -13,   7,  11,   2,   2,  -7, 1343, 14.537, 1599,  -1, -46, -125, -2888, 611, 3847, 996,  -4,   8,   0, 1364, 1310, 1392, 1306, 0, SMALL_ANGLE, IDLE, 1, 1
65932, 92540508,   1,   5,   2,  -4,  18, -13,  -6,  -7,   2,   2,  -7, 1343, 14.537, 1606,  30, -19, -105, -2703, 701, 3773, 1003,   3,   8,   0, 1357, 1347, 1361, 1307, 0, SMALL_ANGLE, IDLE, 1, 1
65936, 92544525,   9,   3,   7,  -4,  18, -13,  19,  -4,   2,   2,  -7, 1343, 14.537, 1606, -78,  -1, -133, -2233, 432, 3747, 1011,  11,   8,   0, 1330, 1308, 1390, 1344, 0, SMALL_ANGLE, IDLE, 1, 1
65940, 92548545,   3,   8,   4,  -4,  18, -13, -16,  11,   2,   2,  -7, 1343, 14.537, 1606,   5, -49, -120, -1985, 449, 3585, 1006,   6,   8,   0, 1388, 1332, 1372, 1280, 0, SMALL_ANGLE, IDLE, 1, 1
65944, 92552597,   5,   8,   0,  -3,  18, -12,   6,  -5,   2,   3,  -7, 1343, 14.537, 1606, -32, -30, -98, -1984, 482, 3317, 998,  -2,   8,   0, 1344, 1326, 1384, 1318, 0, SMALL_ANGLE, IDLE, 1, 1
65948, 92556598,  -7,   7,  -8,  -4,  18, -13, -32,  -3,   2,   3,  -7, 1343, 14.457, 1606, 135, -17, -55, -1899, 614, 3324, 1005,   5,   8,   0, 1387, 1385, 1343, 1257, 0, SMALL_ANGLE, IDLE, 1, 1
65952, 92560599, -16,   4, -10,  -4,  18, -13, -21,  -8,   2,   3,  -7, 1343, 14.457, 1606, 241,  18, -36, -1705, 809, 3459, 996,  -4,   8,   0, 1375, 1393, 1339, 1265, 0, SMALL_ANGLE, IDLE, 1, 1
65956, 92564615, -18,   4,  -8,  -4,  18, -13,  -5,   0,   2,   3,  -7, 1343, 14.457, 1610, 264,  13, -51, -1546, 872, 3581, 999,  -1,   8,   0, 1371, 1369, 1359, 1273, 0, SMALL_ANGLE, IDLE, 1, 1
65960, 92568622, -14,   1,  -3,  -5,  19, -13,   9,  -9,   2,   3,  -7, 1343, 14.457, 1610, 216,  49, -78, -1474, 686, 3638, 1006,   6,   8,   0, 1348, 1358, 1360, 1306, 0, SMALL_ANGLE, IDLE, 1, 1
65964, 92572632,  -6,   3,  -1,  -5,  19, -13,  18,   3,   2,   3,  -7, 1343, 14.457, 1610, 120,  34, -88, -1496, 490, 3476, 999,  -1,   8,   0, 1347, 1325, 1389, 1311, 0, SMALL_ANGLE, IDLE, 1, 1
65968, 92576653,  -3,   1,   0,  -5,  19, -13,   9,  -4,   2,   3,  -7, 1343, 14.457, 1610,  72,  48, -99, -1411, 125, 3419, 1006,   6,   8,   0, 1345, 1339, 1373, 1315, 0, SMALL_ANGLE, IDLE, 1, 1
65972, 92580673,   3,   0,   1,  -5,  19, -13,  13,  -4,   2,   3,  -7, 1343, 14.457, 1610,  -3,  61, -103, -1356, -1304, 3910, 1001,   1,   8,   0, 1335, 1329, 1381, 1327, 0, SMALL_ANGLE, IDLE, 1, 1
65976, 92584681,  10,   0,   4,  -5,  19, -13,  16,  -3,   2,   3,  -7, 1343, 14.457, 1610, -84,  71, -120, -1374, -1763, 4249, 998,  -2,   8,   0, 1329, 1315, 1389, 1339, 0, SMALL_ANGLE, IDLE, 1, 1
65980, 92588685,  12,  -3,   6,  -5,  19, -13,   5,  -7,   2,   3,  -7, 1343, 14.457, 1610, -115,  96, -129, -1226, -1691, 4519, 999,  -1,   8,   0, 1333, 1329, 1371, 1339, 0, SMALL_ANGLE, IDLE, 1, 1
65984, 92592808,   4,  -6,  -1,  -4,  18, -13, -15,  -8,   1,   3,  -7, 1343, 14.457, 1616, -43, 130, -91, -1144, -758, 4634, 1000,   0,   8,   0, 1348, 1368, 1346, 1310, 0, SMALL_ANGLE, IDLE, 1, 1
65988, 92596821,   4,  -2,   0,  -4,  18, -13,  -2,  10,   1,   3,  -7, 1343, 15.105, 1616, -34,  84, -93, -1295, -520, 4730, 1001,   1,   8,   0, 1358, 1332, 1380, 1302, 0, SMALL_ANGLE, IDLE, 1, 1
65992, 92600834,   4,   2,   1,  -4,  18, -13,   0,   9,   1,   3,  -7, 1343, 15.105, 1616, -33,  46, -101, -1499, -563, 4788, 1004,   4,   8,   0, 1360, 1326, 1384, 1302, 0, SMALL_ANGLE, IDLE, 1, 1
65996, 92604844,   2,   1,   0,  -4,  18, -13,  -5,  -3,   1,   3,  -7, 1343, 15.105, 1616, -10,  56, -93, -1698, -789, 4650, 1012,  12,   8,   0, 1353, 1347, 1365, 1307, 0, SMALL_ANGLE, IDLE, 1, 1
66000, 92608852,  -6,   0,  -5,  -4,  18, -13, -20,  -4,   1,   3,  -7, 1343, 15.105, 1616,  93,  70, -70, -1706, -562, 4690, 1005,   5,   8,   0, 1369, 1377, 1345, 1281, 0, SMALL_ANGLE, IDLE, 1, 1
66004, 92612858,  -6,   3,  -2,  -4,  18, -13,  -6,   8,   2,   3,  -7, 1343, 15.105, 1616, 120,  32, -86, -1708, -67, 4647, 1005,   5,   8,   0, 1373, 1345, 1371, 1283, 0, SMALL_ANGLE, IDLE, 1, 1
66008, 92616864,  -7,   2,  -1,  -5,  19, -13,  -1,  -3,   2,   3,  -7, 1343, 15.105, 1623, 127,  44, -91, -1889, 139, 4379, 996,  -4,   8,   0, 1360, 1352, 1362, 1298, 0, SMALL_ANGLE, IDLE, 1, 1
66012, 92621052,  -1,   0,   0,  -5,  19, -13,  14,  -5,   2,   3,  -7, 1343, 15.105, 1623,  50,  64, -99, -1965, -220, 4209, 998,  -2,   8,   0, 1336, 1334, 1378, 1324, 0, SMALL_ANGLE, IDLE, 1, 1
66016, 92625060,   2,   3,   2,  -5,  19, -13,   6,   9,   2,   3,  -7, 1343, 15.105, 1623,  15,  24, -104, -2070, -754, 4153, 1002,   2,   8,   0, 1360, 1320, 1388, 1304, 0, SMALL_ANGLE, IDLE, 1, 1
66020, 92629070,  -2,   3,   0,  -5,  19, -13, -11,   0,   2,   3,  -7, 1343, 15.105, 1623,  66,  27, -95, -2247, -1761, 4058, 1008,   8,   8,   0, 1370, 1352, 1360, 1290, 0, SMALL_ANGLE, IDLE, 1, 1
66024, 92633073, -10,   1,  -5,  -5,  19, -13, -21,  -8,   2,   3,  -7, 1343, 15.105, 1623, 173,  57, -70, -2236, -2138, 3908, 995,  -5,   8,   0, 1373, 1385, 1337, 1277, 0, SMALL_ANGLE, IDLE, 1, 1
66028, 92637078,  -5,   0,  -2,  -5,  19, -13,  14,  -4,   2,   3,  -7, 1343, 14.342, 1623,  98,  71, -86, -2164, -2382, 3779, 1008,   8,   8,   0, 1339, 1339, 1377, 1317, 0, SMALL_ANGLE, IDLE, 1, 1
66032, 92641085,  -9,  -1,  -4,  -5,  19, -13, -12,  -2,   2,   3,  -7, 1343, 14.342, 1630, 158,  79, -74, -2069, -2285, 3473, 994,  -6,   8,   0, 1368, 1370, 1350, 1284, 0, SMALL_ANGLE, IDLE, 1, 1
66036, 92645136,  -4,   1,  -2,  -6,  19, -13,  12,   4,   2,   3,  -7, 1343, 14.342, 1630,  88,  58, -86, -2132, -2391, 3396, 999,  -1,   8,   0, 1350, 1332, 1384, 1306, 0, SMALL_ANGLE, IDLE, 1, 1
66040, 92649129,   5,   4,   2,  -6,  19, -13,  22,  10,   2,   3,  -7, 1343, 14.342, 1630, -28,  12, -110, -2090, -2739, 3481, 997,  -3,   8,   0, 1344, 1300, 1408, 1320, 0, SMALL_ANGLE, IDLE, 1, 1
66044, 92653140,   1,   7,   2,  -5,  19, -13, -10,   0,   2,   4,  -7, 1344, 14.342, 1630,  20,  13, -109, -1817, -3298, 4041, 1001,   1,   8,   0, 1373, 1343, 1367, 1293, 0, SMALL_ANGLE, IDLE, 1, 1
66048, 92657147,  -4,   3,  -2,  -5,  19, -13, -15, -11,   2,   4,  -7, 1344, 14.342, 1630,  92,  59, -85, -1623, -2973, 4412, 1006,   6,   8,   0, 1364, 1372, 1346, 1294, 0, SMALL_ANGLE, IDLE, 1, 1
66052, 92661163,  -3,  -3,  -4,  -6,  19, -13,   3, -16,   2,   4,  -7, 1344, 14.342, 1630,  72, 120, -72, -1511, -2337, 4738, 1001,   1,   8,   0, 1333, 1367, 1355, 1321, 0, SMALL_ANGLE, IDLE, 1, 1
66056, 92665156,   2,  -5,  -4,  -6,  19, -13,  10,  -7,   2,   4,  -7, 1344, 14.342, 1634,  17, 148, -72, -1603, -1528, 4795, 994,  -6,   8,   0, 1328, 1348, 1374, 1326, 0, 0, IDLE, 1, 1
66060, 92669169,   0,  -3,  -4,  -6,  19, -13,  -4,   5,   2,   4,  -7, 1344, 14.342, 1634,  38, 127, -73, -1646, -1397, 4666, 998,  -2,   8,   0, 1358, 1350, 1372, 1296, 0, 0, IDLE, 1, 1
66064, 92673193,   0,   1,  -4,  -6,  19, -13,  -2,   0,   2,   6,  -7, 1346, 14.342, 1634,  47, 125, -75, -1712, -1277, 4517, 1008,   8,   8,   0, 1357, 1351, 1375, 1301, 0, 0, IDLE, 1, 1
66068, 92677199,  12,   3,   2,  -5,  19, -13,  30,   6,   2,   6,  -7, 1346, 14.280, 1634, -116,  96, -107, -1797, -993, 4163, 996,  -4,   8,   0, 1326, 1292, 1422, 1344, 0, 0, IDLE, 1, 1
66072, 92681205,  15,   2,   4,  -5,  19, -13,   8,  -4,   2,   6,  -7, 1346, 14.280, 1634, -162, 108, -120, -1821, -1006, 4010, 1002,   2,   8,   0, 1336, 1320, 1390, 1338, 0, 0, IDLE, 1, 1
66076, 92685227,  10,   1,   4,  -4,  19, -13, -13,  -2,   2,   6,  -7, 1346, 14.280, 1634, -98, 116, -121, -1983, -990, 3795, 1009,   9,   8,   0, 1362, 1344, 1366, 1312, 0, 0, IDLE, 1, 1
66080, 92689229,  15,   1,   9,  -4,  19, -13,  11,  -2,   2,   6,  -7, 1346, 14.280, 1634, -159, 125, -146, -2177, -699, 3681, 1004,   4,   7,   0, 1338, 1310, 1390, 1346, 0, 0, IDLE, 1, 1
66084, 92693381,   7,   7,   4,  -4,  19, -13, -21,   1,   2,   9,  -7, 1346, 14.280, 1644, -52, 118, -121, -2314, -287, 3639, 997,  -3,   7,   0, 1382, 1346, 1364, 1292, 0, 0, IDLE, 1, 1
66088, 92697407,   0,   9,   1,  -4,  19, -13, -19,   3,   2,   9,  -7, 1346, 14.280, 1644,  47, 103, -101, -2540, 101, 3540, 998,  -2,   7,   0, 1388, 1350, 1366, 1280, 0, 0, IDLE, 1, 1
66092, 92701418,   5,  11,   3,  -4,  20, -13,  13,   5,   2,   9,  -7, 1346, 14.280, 1644, -27,  77, -114, -2652, 426, 3341, 1000,   0,   7,   0, 1358, 1306, 1406, 1314, 0, 0, IDLE, 1, 1
66096, 92705414,   0,  13,   0,  -4,  20, -13, -13,   4,   2,   9,  -7, 1346, 14.280, 1644,  43,  58, -98, -2616, 396, 3265, 995,  -5,   7,   0, 1387, 1339, 1379, 1279, 0, 0, IDLE, 1, 1
66100, 92709417,  -2,   8,  -2,  -4,  20, -13,  -4, -12,   2,   9,  -7, 1346, 14.280, 1644,  62, 107, -86, -2518, 338, 3273, 995,  -5,   7,   0, 1357, 1355, 1367, 1305, 0, 0, IDLE, 1, 1
66104, 92713510,  -7,  10,  -6,  -4,  20, -13, -13, -14,   2,  12,  -7, 1346, 14.280, 1644, 125, 163, -63, -2050, 586, 3755, 1094,  94,   7,   0, 1367, 1373, 1357, 1287, 0, 0, IDLE, 1, 1
66108, 92717514,  -7,   7,  -4,  -4,  21, -13,  -2,  -9,   2,  12,  -7, 1346, 15.202, 1650, 135, 197, -75, -1856, 905, 4004, 996,  -4,   7,   0, 1361, 1357, 1369, 1297, 0, 0, IDLE, 1, 1
66112, 92721524,  -5,   6,   0,  -4,  21, -13,   4,  -1,   2,  12,  -7, 1346, 15.202, 1650, 108, 203, -96, -1766, 1260, 4002, 1004,   4,   7,   0, 1364, 1338, 1380, 1302, 0, 0, IDLE, 1, 1
66116, 92725529,  -8,   2,  -2,  -4,  21, -13,  -7, -13,   2,  12,  -7, 1346, 15.202, 1650, 147, 254, -86, -1826, 1225, 3726, 1001,   1,   7,   0, 1360, 1370, 1352, 1302, 0, 0, IDLE, 1, 1
66120, 92729549,  -7,   1,  -1,  -5,  21, -13,   3,  -1,   2,  12,  -7, 1346, 15.202, 1650, 130, 259, -89, -1804, 812, 3898, 1000,   0,   7,   0, 1362, 1348, 1372, 1302, 0, 0, IDLE, 1, 1
66124, 92733566,   1,   4,   2,  -5,  21, -13,  20,  -2,   2,  14,  -7, 1346, 15.202, 1650,  20, 267, -108, -1688, 472, 4109, 1001,   1,   7,   0, 1342, 1318, 1396, 1328, 0, 0, IDLE, 1, 1
66128, 92737600,   6,   2,   4,  -4,  21, -13,  10,  -7,   2,  14,  -7, 1346, 15.202, 1650, -38, 293, -120, -1421, -107, 4069, 997,  -3,   7,   0, 1341, 1327, 1383, 1333, 0, 0, IDLE, 1, 1
66132, 92741598,   8,  -3,   4,  -4,  21, -13,   5, -14,   2,  14,  -7, 1346, 15.202, 1657, -64, 349, -123, -1471, -395, 4170, 1006,   6,   7,   0, 1332, 1342, 1368, 1342, 0, 0, IDLE, 1, 1
66136, 92745597,  13,  -7,   4,  -4,  21, -13,  12, -11,   2,  14,  -7, 1346, 15.202, 1657, -135, 392, -117, -1537, -510, 4307, 998,  -2,   7,   0, 1319, 1331, 1379, 1355, 0, 0, IDLE, 1, 1
66140, 92749612,  25,  -7,   7,  -3,  21, -13,  29,  -1,   2,  14,  -7, 1346, 15.202, 1657, -284, 399, -137, -1324, -199, 4469, 1007,   7,   7,   0, 1302, 1288, 1416, 1378, 0, 0, IDLE, 1, 1
66144, 92753628,  17, -12,   0,  -3,  21, -13, -21, -19,   2,  15,  -7, 1346, 15.202, 1657, -181, 475, -99, -1221, -90, 4775, 996,  -4,   7,   0, 1330, 1376, 1342, 1336, 0, 0, IDLE, 1, 1
66148, 92757640,   6, -16,  -6,  -2,  20, -13, -28, -12,   2,  15,  -7, 1346, 14.661, 1657, -43, 522, -61, -1295, -57, 4912, 1003,   3,   7,   0, 1343, 1397, 1333, 1311, 0, 0, IDLE, 1, 1
66152, 92761657,   5, -16,  -5,  -2,  20, -13,  -4,  -1,   2,  15,  -7, 1346, 14.661, 1657, -25, 527, -71, -1618,  20, 4734, 1004,   4,   7,   0, 1332, 1362, 1366, 1324, 0, 0, IDLE, 1, 1
66156, 92765668,   1, -13,  -1,  -2,  19, -13,  -9,   8,   2,  15,  -7, 1346, 14.661, 1661,  23, 490, -89, -1712,  69, 4775, 1007,   7,   7,   0, 1356, 1356, 1364, 1308, 0, 0, IDLE, 1, 1
66160, 92769665,  -3, -10,  -3,  -2,  19, -13, -11,   7,   2,  15,  -7, 1346, 14.661, 1661,  72, 456, -78, -1749, 252, 4822, 999,  -1,   7,   0, 1362, 1362, 1362, 1298, 0, 0, IDLE, 1, 1
66164, 92773673,  -9,  -9,  -5,  -2,  19, -13, -15,  -2,   2,  16,  -7, 1346, 14.661, 1661, 150, 466, -68, -1831, 378, 4801, 1004,   4,   7,   0, 1362, 1382, 1346, 1294, 0, 0, IDLE, 1, 1
66168, 92777691,  -9,  -9,  -1,  -3,  18, -13,   0,   0,   2,  16,  -7, 1346, 14.661, 1661, 150, 460, -88, -1902, 306, 4547, 1005,   5,   7,   0, 1353, 1363, 1357, 1311, 0, 0, IDLE, 1, 1
66172, 92781698,  -8,  -5,   0,  -3,  18, -13,   1,   9,   2,  16,  -7, 1346, 14.661, 1661, 140, 421, -92, -1905, 173, 4214, 1000,   0,   7,   0, 1365, 1347, 1371, 1301, 0, 0, IDLE, 1, 1
66176, 92785704,  -8,  -3,  -2,  -3,  18, -13,   0,   4,   2,  16,  -7, 1346, 14.661, 1661, 136, 403, -84, -1934, -268, 3962, 1002,   2,   7,   0, 1361, 1353, 1369, 1301, 0, 0, IDLE, 1, 1
66180, 92789714,  -6,  -2,  -2,  -3,  18, -13,   4,   3,   2,  16,  -7, 1346, 14.661, 1661, 115, 385, -84, -1780, -313, 3935, 995,  -5,   8,   0, 1355, 1347, 1375, 1307, 0, 0, IDLE, 1, 1
66184, 92793722,  -5,   5,   0,  -3,  18, -13,   0,   8,   2,  18,  -7, 1347, 14.661, 1667, 109, 348, -95, -1660, -245, 3711, 1001,   1,   8,   0, 1373, 1337, 1383, 1295, 0, 0, IDLE, 1, 1
66188, 92797724,  -1,   7,   2,  -3,  18, -13,  10,   3,   2,  18,  -7, 1347, 14.635, 1667,  54, 334, -111, -1407, -429, 2961, 997,  -3,   8,   0, 1358, 1324, 1392, 1314, 0, 0, IDLE, 1, 1
66192, 92801731,  -2,   6,   2,  -4,  19, -13,  -4,  -1,   2,  18,  -7, 1347, 14.635, 1667,  68, 336, -105, -1416, -812, 2706, 996,  -4,   8,   0, 1370, 1344, 1372, 1302, 0, 0, IDLE, 1, 1
66196, 92805731,   4,   1,   7,  -3,  19, -13,  14, -15,   2,  18,  -7, 1347, 14.635, 1667, -10, 397, -132, -1435, -1322, 2559, 995,  -5,   8,   0, 1331, 1333, 1373, 1351, 0, 0, IDLE, 1, 1
66200, 92809937,   7,   0,   9,  -3,  19, -13,   9,  -4,   2,  18,  -7, 1347, 14.635, 1667, -56, 412, -150, -1191, -1555, 2625, 996,  -4,   8,   0, 1345, 1323, 1379, 1341, 0, 0, IDLE, 1, 1
66204, 92813962,  -2,  -2,   4,  -3,  19, -13, -24, -15,   2,  20,  -7, 1347, 14.635, 1667,  71, 472, -120, -1063, -961, 2486, 1008,   8,   8,   0, 1369, 1383, 1329, 1307, 0, 0, IDLE, 1, 1
66208, 92817964,  -2,   0,   2,  -3,  19, -13,   0,   4,   2,  20,  -7, 1347, 14.635, 1674,  69, 453, -107, -1039, -357, 2266, 996,  -4,   8,   0, 1364, 1340, 1376, 1308, 0, 0, IDLE, 1, 1
66212, 92821969,   0,   2,   3,  -3,  19, -13,   6,   4,   2,  20,  -7, 1347, 14.635, 1674,  38, 434, -112, -1249, -493, 2206, 1005,   5,   8,   0, 1359, 1329, 1385, 1315, 0, 0, IDLE, 1, 1
66216, 92825987,   3,   3,   3,  -3,  19, -13,   7,   1,   2,  20,  -7, 1347, 14.635, 1674,  -4, 424, -115, -1271, -793, 2169, 1007,   7,   8,   0, 1353, 1327, 1387, 1321, 0, 0, IDLE, 1, 1
66220, 92830011,   4,   1,   4,  -3,  19, -13,   1,  -5,   2,  20,  -7, 1347, 14.635, 1674, -14, 446, -116, -1158, -854, 2230, 1010,  10,   8,   0, 1351, 1339, 1373, 1325, 0, 0, IDLE, 1, 1
66224, 92834017,   0,   6,   3,  -3,  19, -13, -14,  -3,   3,  23,  -7, 1347, 14.635, 1674,  58, 457, -115, -1117, 171, 2749, 999,  -1,   8,   0, 1376, 1352, 1362, 1298, 0, 0, IDLE, 1, 1
66228, 92838017,   5,   6,   6,  -3,  19, -13,   9,   0,   3,  23,  -7, 1347, 15.495, 1674,   6, 458, -131, -1332, 710, 2794, 1001,   1,   8,   0, 1354, 1318, 1390, 1326, 0, 0, IDLE, 1, 1
66232, 92842018,  -4,   2,   2,  -3,  19, -13, -21, -10,   3,  23,  -7, 1347, 15.495, 1678, 113, 496, -110, -1603, 946, 2744, 1000,   0,   8,   0, 1375, 1375, 1341, 1297, 0, 0, IDLE, 1, 1
66236, 92846036,  -5,  -1,   2,  -3,  19, -13,  -4, -10,   3,  23,  -7, 1347, 15.495, 1678, 132, 537, -106, -1813, 755, 2916, 1008,   8,   8,   0, 1356, 1362, 1354, 1316, 0, 0, IDLE, 1, 1
66240, 92850065,  -9,  -4,   2,  -3,  19, -13,  -9,  -8,   3,  23,  -7, 1347, 15.495, 1678, 177, 568, -109, -1850, 768, 3061, 1006,   6,   8,   0, 1364, 1372, 1344, 1308, 0, 0, IDLE, 1, 1
66244, 92854062, -10,   1,   4,  -4,  19, -12,  -2,  -4,   3,  26,  -7, 1346, 15.495, 1678, 186, 587, -119, -1900, 853, 3199, 998,  -2,   8,   0, 1370, 1354, 1354, 1306, 0, 0, IDLE, 1, 1
66248, 92858053,  -1,  -2,   7,  -4,  19, -12,  21,  -6,   3,  26,  -7, 1346, 15.495, 1678,  74, 608, -138, -2042, 797, 3356, 1002,   2,   8,   0, 1336, 1324, 1378, 1346, 0, 0, IDLE, 1, 1
66252, 92862068,   5,  -4,   8,  -4,  19, -12,  13,  -6,   3,  26,  -7, 1346, 15.495, 1678,   1, 635, -141, -2032, 544, 3367, 998,  -2,   8,   0, 1337, 1327, 1373, 1347, 0, 0, IDLE, 1, 1
66256, 92866072,   3,  -3,   5,  -4,  19, -12,  -6,   1,   3,  26,  -7, 1346, 15.495, 1684,  29, 625, -124, -1960, 198, 3456, 1007,   7,   8,   0, 1363, 1343, 1363, 1315, 0, 0, IDLE, 1, 1
66260, 92870083,   0,  -4,   4,  -4,  19, -12,  -7,  -4,   3,  26,  -7, 1346, 15.495, 1684,  65, 643, -119, -1897, -392, 3737, 1014,  14,   8,   0, 1360, 1354, 1354, 1316, 0, 0, IDLE, 1, 1
66264, 92874086,  -3,  -4,   2,  -4,  19, -12,  -8,  -6,   3,  27,  -7, 1346, 15.495, 1684, 104, 665, -108, -1712, -340, 3787, 998,  -2,   8,   0, 1360, 1362, 1350, 1312, 0, 0, IDLE, 1, 1
66268, 92878100,  -7, -10,  -3,  -4,  18, -12,  -9, -15,   3,  27,  -7, 1346, 14.910, 1684, 149, 725, -80, -1405, -347, 3861, 994,  -6,   8,   0, 1344, 1388, 1334, 1318, 0, 0, IDLE, 1, 1
66272, 92882112,  -9, -11,  -5,  -4,  18, -12,  -5,  -5,   3,  27,  -7, 1346, 14.910, 1684, 173, 746, -68, -1095, -820, 3913, 1004,   4,   8,   0, 1349, 1379, 1347, 1309, 0, 0, IDLE, 1, 1
66276, 92886123,  -7, -11,  -3,  -4,  18, -12,   3,   0,   3,  27,  -7, 1346, 14.910, 1684, 159, 746, -79, -1112, -848, 3769, 999,  -1,   8,   0, 1346, 1362, 1360, 1316, 0, 0, IDLE, 1, 1
66280, 92890137,  -3,  -5,  -1,  -4,  18, -12,  10,  16,   3,  27,  -7, 1346, 14.910, 1684, 100, 677, -89, -1171, -637, 3651, 997,  -3,   8,   0, 1359, 1327, 1391, 1307, 0, 0, IDLE, 1, 1
66284, 92894262,  15,   2,   5,  -4,  18, -12,  39,  13,   4,  28,  -7, 1346, 14.910, 1690, -107, 623, -125, -1274, -133, 3440, 996,  -4,   8,   0, 1322, 1270, 1436, 1356, 0, 0, IDLE, 1, 1
66288, 92898273,  17,   3,   5,  -4,  18, -12,   6,   3,   4,  28,  -7, 1346, 14.910, 1690, -139, 604, -124, -1329, -201, 3269, 1007,   7,   8,   0, 1344, 1310, 1396, 1334, 0, 0, IDLE, 1, 1
66292, 92902397,  11,   0,   0,  -3,  18, -12, -17,  -9,   4,  28,  -7, 1346, 14.910, 1690, -54, 643, -97, -1349, -424, 3129, 997,  -3,   8,   0, 1352, 1358, 1358, 1316, 0, 0, IDLE, 1, 1
66296, 92906402,   8,  -4,  -2,  -3,  18, -12,  -7, -10,   4,  28,  -7, 1346, 14.910, 1690, -19, 682, -84, -1211, -647, 2965, 999,  -1,   8,   0, 1338, 1358, 1362, 1326, 0, 0, IDLE, 1, 1
66300, 92910412,   6,  -5,  -2,  -3,  18, -12,  -4,  -3,   4,  28,  -7, 1346, 14.910, 1690,   4, 695, -86, -1004, -717, 3057, 994,  -6,   8,   0, 1343, 1351, 1369, 1321, 0, 0, IDLE, 1, 1
66304, 92914411,   4,  -6,  -2,  -3,  17, -12, -11,  -4,   5,  28,  -7, 1346, 14.910, 1690,  59, 708, -87, -779, -738, 3202, 995,  -5,   8,   0, 1349, 1363, 1357, 1315, 0, 0, IDLE, 1, 1
66308, 92918417,   6,  -4,   0,  -2,  17, -12,   4,   4,   5,  28,  -7, 1346, 15.069, 1698,  35, 689, -94, -415, -847, 3462, 1002,   2,   8,   0, 1343, 1333, 1383, 1325, 0, 0, IDLE, 1, 1
66312, 92922418,   2,  -8,  -3,  -2,  17, -12, -10, -10,   5,  28,  -7, 1346, 15.069, 1698,  80, 728, -80, -312, -896, 3611, 1002,   2,   8,   0, 1340, 1372, 1350, 1322, 0, 0, IDLE, 1, 1
66316, 92926499,   0, -10,  -4,  -2,  17, -12,  -7,  -6,   5,  28,  -7, 1346, 15.069, 1698, 114, 752, -75, -278, -907, 3632, 1005,   5,   8,   0, 1340, 1370, 1354, 1320, 0, 0, IDLE, 1, 1
66320, 92930501,   3,  -8,   0,  -2,  17, -12,   7,   6,   5,  28,  -7, 1346, 15.069, 1698,  72, 726, -95, -454, -1122, 3204, 995,  -5,   8,   0, 1341, 1335, 1381, 1327, 0, 0, IDLE, 1, 1
66324, 92934518,   0,  -6,   0,  -2,  16, -12,  -7,   3,   5,  28,  -7, 1346, 15.069, 1698, 108, 710, -96, -662, -1078, 3033, 995,  -5,   8,   0, 1356, 1354, 1362, 1312, 0, 0, IDLE, 1, 1
66328, 92938537,  -5,  -6,  -3,  -2,  16, -12, -12,   0,   5,  28,  -7, 1346, 15.069, 1698, 171, 707, -77, -943, -820, 2908, 1007,   7,   8,   0, 1360, 1370, 1352, 1302, 0, 0, IDLE, 1, 1
66332, 92942548,  -7,  -7,  -5,  -2,  16, -12,  -5,  -4,   5,  28,  -7, 1346, 15.069, 1702, 193, 721, -70, -1280, -405, 2604, 1008,   8,   8,   0, 1348, 1372, 1354, 1310, 0, 0, IDLE, 1, 1
66336, 92946549,  -9,  -9,  -5,  -3,  16, -13,  -6,  -5,   5,  28,  -7, 1346, 15.069, 1702, 223, 742, -64, -1321, -347, 2506, 1001,   1,   8,   0, 1348, 1380, 1348, 1308, 0, 0, IDLE, 1, 1
66340, 92950572,   6,  -8,   2,  -3,  16, -13,  37,   2,   5,  28,  -7, 1346, 15.069, 1702,  31, 728, -110, -1457, -310, 2351, 1007,   7,   8,   0, 1305, 1307, 1407, 1365, 0, 0, IDLE, 1, 1
66344, 92954591,   9,  -8,   7,  -2,  15, -12,   6,  -1,   5,  28,  -7, 1346, 15.069, 1702, -11, 733, -132, -1834, -142, 2121, 1001,   1,   8,   0, 1334, 1332, 1370, 1348, 0, 0, IDLE, 1, 1
66348, 92958598,  -6, -10,  -1,  -2,  15, -12, -38,  -4,   5,  28,  -7, 1346, 14.865, 1702, 186, 751, -90, -1686, -71, 2224, 1004,   4,   8,   0, 1380, 1404, 1314, 1286, 0, 0, IDLE, 1, 1
66352, 92962611,  -2,  -6,  -1,  -3,  15, -13,   9,   9,   5,  28,  -7, 1346, 14.865, 1702, 139, 708, -90, -1451, -106, 2340, 1005,   5,   8,   0, 1346, 1338, 1382, 1318, 0, 0, IDLE, 1, 1
66356, 92966626,   0,  -8,  -1,  -3,  15, -13,   6,  -6,   5,  28,  -7, 1346, 14.865, 1708, 105, 735, -90, -1192, -312, 2765, 1003,   3,   8,   0, 1330, 1356, 1364, 1334, 0, 0, IDLE, 1, 1
66360, 92970656, -10,  -8,  -4,  -3,  15, -13, -27,   0,   5,  28,  -7, 1346, 14.865, 1708, 241, 728, -73, -1269, -522, 2921, 1016,  16,   8,   0, 1376, 1396, 1330, 1282, 0, 0, IDLE, 1, 1
66364, 92974672, -10, -10,  -4,  -3,  14, -13,   0,  -5,   5,  28,  -7, 1347, 14.865, 1708, 236, 749, -72, -1267, -716, 2894, 1008,   8,   8,   0, 1342, 1378, 1350, 1318, 0, 0, IDLE, 1, 1
66368, 92978676,   2, -10,   0,  -3,  14, -13,  30,  -1,   5,  28,  -7, 1347, 14.865, 1708,  77, 753, -94, -902, -749, 2766, 999,  -1,   8,   0, 1308, 1328, 1392, 1360, 0, 0, IDLE, 1, 1
66372, 92982693,   1, -16,   0,  -3,  14, -13,  -4, -18,   5,  28,  -7, 1347, 14.865, 1708,  97, 827, -97, -1063, -413, 2599, 1005,   5,   8,   0, 1320, 1386, 1334, 1348, 0, 0, IDLE, 1, 1
66376, 92986700,  18, -14,  10,  -3,  13, -13,  43,   7,   5,  28,  -7, 1347, 14.865, 1708, -130, 794, -153, -1436, -51, 2369, 1003,   3,   8,   0, 1292, 1286, 1414, 1396, 0, 0, IDLE, 1, 1
66380, 92990704,  36,  -8,  16,  -2,  13, -12,  43,  14,   5,  28,  -7, 1347, 14.865, 1708, -359, 733, -189, -1792, -44, 1943, 997,  -3,   8,   0, 1293, 1247, 1439, 1409, 0, 0, IDLE, 1, 1
66384, 92994815,  15, -11,   4,  -1,  13, -12, -53,  -7,   5,  28,  -8, 1347, 14.865, 1712, -86, 761, -128, -1710, -163, 1871, 1008,   8,   8,   0, 1373, 1399, 1311, 1305, 0, 0, IDLE, 1, 1
66388, 92998821,   1,  -9,  -4,  -1,  12, -12, -35,   3,   5,  28,  -8, 1347, 14.431, 1712,  93, 746, -87, -1544, -164, 2044, 1004,   4,   8,   0, 1372, 1392, 1334, 1290, 0, 0, IDLE, 1, 1
66392, 93002817,   7,  -4,   2,  -1,  12, -12,  14,  13,   5,  28,  -8, 1347, 14.431, 1712,  16, 691, -122, -1453, -177, 2271, 995,  -5,   8,   0, 1338, 1316, 1398, 1336, 0, 0, IDLE, 1, 1
66396, 93006835,  -3, -10,   3,  -1,  12, -12, -24, -15,   5,  28,  -8, 1347, 14.431, 1712, 141, 749, -127, -1347, -181, 2315, 1001,   1,   8,   0, 1353, 1397, 1315, 1323, 0, 0, IDLE, 1, 1
66400, 93010837,   0,  -8,   6,  -1,  12, -12,   6,   5,   5,  28,  -8, 1347, 14.431, 1712, 104, 726, -143, -1122, -168, 2394, 998,  -2,   8,   0, 1345, 1339, 1367, 1337, 0, 0, IDLE, 1, 1
66404, 93014835,   5,  -2,  10,  -1,  12, -12,  11,  20,   5,  27,  -8, 1349, 14.431, 1712,  45, 641, -165, -655, -505, 2831, 1000,   0,   8,   0, 1362, 1306, 1396, 1332, 0, 0, IDLE, 1, 1
66408, 93018857, -17,  -6,   2,  -1,  12, -12, -54, -10,   5,  27,  -8, 1349, 14.431, 1718, 321, 683, -117, -840, -694, 2947, 1002,   2,   8,   0, 1407, 1435, 1283, 1271, 0, 0, IDLE, 1, 1
66412, 93022852, -16,  -4,   0,  -1,  12, -12,   2,   3,   5,  27,  -8, 1349, 14.431, 1718, 309, 665, -104, -1098, -586, 2785, 999,  -1,   8,   0, 1363, 1365, 1357, 1311, 0, 0, IDLE, 1, 1
66416, 93026862,  -3,  -3,   6,  -2,  11, -12,  32,   4,   5,  27,  -8, 1349, 14.431, 1718, 143, 645, -142, -746, -291, 2589, 1007,   7,   8,   0, 1328, 1316, 1394, 1358, 0, 0, IDLE, 1, 1
66420, 93030860,   8,  -2,   9,  -2,  11, -12,  27,   1,   5,  27,  -8, 1349, 14.431, 1718,  -1, 637, -161, -388, -323, 2720, 995,  -5,   8,   0, 1323, 1309, 1395, 1369, 0, 0, IDLE, 1, 1
66424, 93034869,   9,  -5,   6,  -1,  11, -12,  -4,  -9,   6,  27,  -8, 1349, 14.431, 1718,  18, 672, -140, -275, -383, 2848, 1001,   1,   8,   0, 1336, 1354, 1356, 1350, 0, 0, IDLE, 1, 1
66428, 93038877,   5,  -3,   1,  -1,  11, -12, -10,   6,   6,  27,  -8, 1349, 15.557, 1718,  65, 647, -112, -855,  75, 2825, 997,  -3,   8,   0, 1358, 1352, 1368, 1318, 0, 0, IDLE, 1, 1
66432, 93042881,  16,   0,   3,  -1,  11, -12,  27,   5,   6,  27,  -8, 1349, 15.557, 1724, -78, 621, -124, -1190, 320, 2578, 1001,   1,   8,   0, 1314, 1300, 1416, 1366, 0, 0, IDLE, 1, 1
66436, 93046882,  17,   0,   3,   0,  11, -11,   2,   0,   6,  27,  -8, 1349, 15.557, 1724, -88, 623, -127, -1343, 250, 2371, 998,  -2,   8,   0, 1333, 1327, 1387, 1349, 0, 0, IDLE, 1, 1
66440, 93050888,  17,  -3,   7,   0,  11, -11,  -1,  -7,   6,  27,  -8, 1349, 15.557, 1724, -86, 649, -145, -1284, -246, 2644, 1006,   6,   8,   0, 1330, 1336, 1370, 1360, 0, 0, IDLE, 1, 1
66444, 93054898,   9,  -8,   6,   1,  11, -11, -21,  -7,   6,  26,  -8, 1351, 15.557, 1724,  22, 679, -143, -1424,  24, 2810, 1005,   5,   8,   0, 1353, 1371, 1341, 1339, 0, 0, IDLE, 1, 1
66448, 93058913,   7,  -7,   5,   1,  11, -11,  -4,   0,   6,  26,  -8, 1351, 15.557, 1724,  37, 673, -136, -1565, 508, 2669, 996,  -4,   8,   0, 1345, 1349, 1365, 1345, 0, 0, IDLE, 1, 1
66452, 93062924,  -2,  -3,   2,   1,  11, -11, -24,  10,   6,  26,  -8, 1351, 15.557, 1724, 156, 631, -117, -1659, 481, 2158, 993,  -7,   8,   0, 1385, 1367, 1353, 1299, 0, 0, IDLE, 1, 1
66456, 93066975,  -8,  -2,  -1,   1,  11, -11, -16,   4,   6,  26,  -8, 1351, 15.557, 1728, 238, 608, -103, -1707, 107, 2354, 1007,   7,   8,   0, 1375, 1373, 1353, 1303, 0, 0, IDLE, 1, 1
66460, 93070986, -10,  -3,  -1,   0,  11, -11,  -4,  -3,   6,  26,  -8, 1351, 15.557, 1728, 256, 622, -100, -1709,  97, 2735, 1000,   0,   8,   0, 1358, 1372, 1354, 1320, 0, 0, IDLE, 1, 1
66464, 93074996, -21, -13,  -7,   0,  10, -11, -33, -23,   7,  25,  -9, 1353, 15.557, 1728, 426, 715, -80, -1511, 664, 2596, 1003,   3,   8,   0, 1363, 1451, 1291, 1307, 0, 0, IDLE, 1, 1
66468, 93078998,  -6,  -5,   1,   0,  10, -11,  36,  20,   7,  25,  -9, 1353, 14.324, 1728, 237, 630, -125, -1513, 315, 2421, 1001,   1,   8,   0, 1338, 1308, 1418, 1348, 0, 0, IDLE, 1, 1
66472, 93083002,  11,   7,  14,   0,  10, -11,  43,  32,   7,  25,  -9, 1353, 14.324, 1728,  10, 494, -203, -1705, -313, 2563, 1003,   3,   8,   0, 1351, 1247, 1453, 1361, 0, 0, IDLE, 1, 1
66476, 93087108,  12,   8,  13,   0,  10, -11,   1,   4,   7,  25,  -9, 1353, 14.324, 1728,   3, 472, -193, -2221, -734, 2887, 1110, 110,   8,   0, 1364, 1316, 1386, 1346, 0, 0, IDLE, 1, 1
66480, 93091115, -15,   1,  -2,   0,  11, -11, -69, -20,   7,  25,  -9, 1353, 14.324, 1728, 355, 554, -108, -2007, -519, 2806, 997,  -3,   8,   0, 1416, 1458, 1274, 1264, 0, 0, IDLE, 1, 1
66484, 93095113, -29,  -6,  -5,  -1,  10, -11, -34, -16,   7,  24,  -9, 1359, 14.324, 1730, 526, 619, -92, -1656, -337, 2675, 995,  -5,   8,   0, 1395, 1451, 1299, 1291, 0, 0, IDLE, 1, 1
66488, 93099116, -25,  -2,   2,  -2,  10, -11,   9,  10,   7,  24,  -9, 1359, 14.324, 1730, 479, 573, -134, -1727, -642, 2461, 996,  -4,   8,   0, 1386, 1368, 1368, 1314, 0, 0, IDLE, 1, 1
66492, 93103129, -21,  -2,  11,  -2,  10, -11,   9,   0,   7,  24,  -9, 1359, 14.324, 1730, 429, 575, -185, -2041, -935, 2455, 997,  -3,   8,   0, 1381, 1365, 1353, 1337, 0, 0, IDLE, 1, 1
66496, 93107135,  -5,  -1,  18,  -3,  10, -11,  40,   2,   7,  24,  -9, 1359, 14.324, 1730, 222, 560, -224, -2325, -960, 2463, 1000,   0,   8,   0, 1345, 1309, 1395, 1387, 0, 0, IDLE, 1, 1
66500, 93111269,  -9,   2,   8,  -3,  10, -10, -11,   8,   7,  24,  -9, 1359, 14.324, 1730, 274, 526, -167, -2551, -559, 2462, 1121, 121,   8,   0, 1400, 1364, 1358, 1314, 0, 0, IDLE, 1, 1
66504, 93115276,  -7,   2,   0,  -3,  10, -10,  -4,   4,   9,  23,  -9, 1365, 14.324, 1730, 293, 506, -119, -2543, -627, 2317, 1006,   6,   8,   0, 1385, 1373, 1377, 1325, 0, 0, IDLE, 1, 1
66508, 93119284,   3,  -1,   2,  -3,  10, -10,  26,  -7,   9,  23,  -9, 1365, 15.043, 1732, 156, 533, -134, -2876, -927, 2027, 994,  -6,   8,   0, 1333, 1345, 1401, 1381, 0, 0, IDLE, 1, 1
66512, 93123311,  28,   0,  14,  -3,  10, -10,  60,   1,   9,  23,  -9, 1365, 15.043, 1732, -163, 527, -196, -3737, -1401, 1552, 1003,   3,   8,   0, 1295, 1265, 1457, 1443, 0, 0, IDLE, 1, 1
66516, 93127320,  24,  -1,  11,  -2,  10, -10, -11,  -4,   9,  23,  -9, 1365, 15.043, 1732, -105, 536, -187, -3866, -1220, 1401, 997,  -3,   8,   0, 1360, 1348, 1380, 1372, 0, 0, IDLE, 1, 1
66520, 93131344,  15,  -5,   7,  -1,  10, -10, -21, -11,   9,  23,  -9, 1365, 15.043, 1732,  -3, 583, -158, -3941, -982, 1174, 1008,   8,   8,   0, 1363, 1381, 1355, 1361, 0, 0, IDLE, 1, 1
66524, 93135360,  21,  -6,   9,  -1,  10, -10,   8,  -4,  10,  23,  -9, 1374, 15.043, 1732, -47, 596, -172, -4209, -902, 666, 999,  -1,   8,   0, 1345, 1347, 1403, 1401, 0, 0, IDLE, 1, 1
66528, 93139369,  10,  -8,   9,   0,  10, -10, -27,  -5,  10,  23,  -9, 1374, 15.043, 1732,  94, 618, -175, -4200, -870, 670, 1007,   7,   8,   0, 1387, 1395, 1355, 1359, 0, 0, IDLE, 1, 1
66532, 93143383,   0,  -8,   4,   0,  10,  -9, -25,   1,  10,  23,  -9, 1374, 15.043, 1736, 223, 609, -145, -3868, -756, 828, 1008,   8,   8,   0, 1397, 1401, 1357, 1341, 0, 0, IDLE, 1, 1
66536, 93147399,  -4,  -6,   2,   0,   9,  -9, -11,   2,  10,  23,  -9, 1374, 15.043, 1736, 275, 596, -132, -3012, -621, 1116, 1007,   7,   8,   0, 1387, 1391, 1371, 1347, 0, 0, IDLE, 1, 1
66540, 93151402,  -8,  -4,   5,   0,   9,  -9, -11,   5,  10,  23,  -9, 1374, 15.043, 1736, 327, 574, -149, -2918, -536, 1349, 1002,   2,   8,   0, 1399, 1387, 1369, 1341, 0, 0, IDLE, 1, 1
66544, 93155411,  -6,  -4,   7,  -1,   9,  -9,  -4,   0,  12,  23,  -9, 1383, 15.043, 1736, 346, 569, -158, -2919, -316, 1542, 1005,   5,   8,   0, 1397, 1391, 1379, 1365, 0, 0, IDLE, 1, 1
66548, 93159415,  -9,  -2,   6,  -1,   9,  -9,  -8,   4,  12,  23,  -9, 1383, 16.000, 1736, 386, 549, -152, -2146, 146, 1381, 999,  -1,   8,   0, 1409, 1393, 1379, 1351, 0, 0, IDLE, 1, 1
66552, 93163410,  -1,   3,   7,  -1,   9,  -9,  20,  14,  12,  23,  -9, 1383, 16.000, 1736, 282, 490, -163, -1666, 629, 1229, 1001,   1,   8,   0, 1389, 1341, 1429, 1373, 0, 0, IDLE, 1, 1
66556, 93167412,  27,   9,  23,   0,   9,  -9,  69,  16,  12,  23,  -9, 1383, 16.000, 1739, -82, 423, -251, -1425, 1345, 1078, 1003,   3,   8,   0, 1335, 1239, 1499, 1459, 0, 0, IDLE, 1, 1
66560, 93171435,  15,  12,  18,   0,  10,  -8, -32,   7,  12,  23,  -9, 1383, 16.000, 1739,  86, 391, -227, -1829, 2136, 480, 1007,   7,   8,   0, 1439, 1361, 1385, 1347, 0, 0, IDLE, 1, 1
66564, 93175450,   8,  12,  19,   1,  10,  -8, -20,   0,  13,  23,  -8, 1394, 16.000, 1739, 184, 391, -219, -2144, 1997, 225, 1004,   4,   8,   0, 1438, 1372, 1394, 1372, 0, 0, IDLE, 1, 1
66568, 93179460,  -2,  10,  16,   1,  10,  -8, -25,  -5,  13,  23,  -8, 1394, 16.000, 1739, 314, 409, -197, -2372, 1650, 135, 1003,   3,   8,   0, 1443, 1397, 1375, 1361, 0, 0, IDLE, 1, 1
66572, 93183459, -27,   8,   3,   0,  11,  -8, -62,  -6,  13,  23,  -8, 1394, 16.000, 1739, 635, 435, -126, -2156, 112, 814, 996,  -4,   8,   0, 1491, 1475, 1323, 1287, 0, 0, IDLE, 1, 1
66576, 93187467,  -8,   4,   9,   0,  11,  -8,  47, -10,  13,  23,  -8, 1394, 16.000, 1739, 391, 474, -159, -1641, -564, 1664, 997,  -3,   8,   0, 1361, 1349, 1437, 1429, 0, 0, IDLE, 1, 1
66580, 93191479,  -8,   4,   7,  -1,  11,  -7,   0,   0,  13,  23,  -8, 1394, 16.000, 1739, 389, 474, -147, -1050, -1135, 2770, 1000,   0,   8,   0, 1418, 1388, 1400, 1370, 0, 0, IDLE, 1, 1
66584, 93195583, -10,   7,   5,  -1,  11,  -7, -12,   6,  14,  23,  -8, 1404, 16.000, 1744, 449, 446, -137, 685, -2495, 4963, 1008,   8,   8,   0, 1449, 1405, 1407, 1355, 0, 0, IDLE, 1, 1
66588, 93199589,  -5,  10,   7,  -1,  11,  -7,  12,   7,  14,  23,  -8, 1404, 14.298, 1744, 382, 414, -144, 1729, -3600, 5814, 999,  -1,   8,   0, 1426, 1370, 1438, 1382, 0, 0, IDLE, 1, 1
66592, 93203595,   8,  10,   9,  -1,  11,  -7,  33,   1,  14,  23,  -8, 1404, 14.298, 1744, 210, 407, -163, 2436, -5126, 6439, 999,  -1,   8,   0, 1388, 1340, 1464, 1424, 0, 0, IDLE, 1, 1
66596, 93207763,   6,  10,  11,  -1,  12,  -7,  -5,   0,  14,  23,  -8, 1404, 14.298, 1744, 233, 407, -169, 2325, -8228, 6967, 1007,   7,   8,   0, 1430, 1378, 1422, 1386, 0, 0, IDLE, 1, 1
66600, 93211781,  -7,   4,   3,  -1,  12,  -7, -34, -17,  14,  23,  -8, 1404, 14.298, 1744, 406, 472, -125, 1700, -9167, 6967, 1002,   2,   8,   0, 1441, 1451, 1365, 1359, 0, 0, IDLE, 1, 1
66604, 93215799,  -3,  -2,   1,  -1,  12,  -7,   0, -17,  16,  23,  -8, 1410, 14.298, 1744, 406, 542, -113, 888, -9634, 6879, 1007,   7,   8,   0, 1401, 1427, 1405, 1407, 0, 0, IDLE, 1, 1
66608, 93219805,   3,  -4,   4,  -1,  12,  -7,  15,  -6,  16,  23,  -8, 1410, 14.298, 1747, 327, 565, -135, -235, -8927, 6799, 994,  -6,   8,   0, 1392, 1394, 1432, 1422, 0, 0, IDLE, 1, 1
66612, 93223806,  11,  -2,  11,  -1,  12,  -7,  20,   4,  16,  23,  -8, 1410, 14.298, 1747, 217, 544, -170, -334, -7855, 6889, 1001,   1,   8,   0, 1398, 1362, 1450, 1430, 0, 0, IDLE, 1, 1
66616, 93227834,  24,   0,  18,   0,  12,  -6,  32,   5,  16,  23,  -8, 1410, 14.298, 1747,  49, 522, -209, -359, -6860, 7083, 1030,  30,   8,   0, 1383, 1325, 1471, 1461, 0, 0, IDLE, 1, 1
66620, 93231839,  55,   6,  33,   1,  12,  -6,  76,  16,  16,  23,  -8, 1410, 14.298, 1747, -352, 452, -294, -910, -5522, 6944, 1006,   6,   8,   0, 1339, 1217, 1549, 1535, 0, 0, IDLE, 1, 1
66624, 93235835,  30,   3,  17,   3,  12,  -6, -70,  -8,  18,  23,  -8, 1413, 14.298, 1747,  14, 486, -207, -1564, -5365, 6866, 1000,   0,   8,   0, 1468, 1432, 1372, 1380, 0, 0, IDLE, 1, 1
66628, 93239832,   1,   2,   6,   3,  12,  -5, -73,  -3,  18,  23,  -8, 1413, 14.209, 1747, 391, 498, -143, -2412, -5597, 6841, 995,  -5,   8,   0, 1494, 1470, 1354, 1334, 0, 0, IDLE, 1, 1
66632, 93243827, -18,   0,   5,   3,  12,  -5, -47,  -7,  18,  23,  -8, 1413, 14.209, 1749, 634, 524, -138, -4126, -5805, 6306, 1001,   1,   8,   0, 1480, 1470, 1356, 1346, 0, 0, IDLE, 1, 1
66636, 93247832, -43,  -4,  -3,   2,  12,  -5, -63, -12,  18,  23,  -8, 1413, 14.209, 1749, 958, 574, -88, -4435, -5664, 6067, 1001,   1,   8,   0, 1505, 1529, 1313, 1305, 0, 0, IDLE, 1, 1
